[
  {
    "title": "The Griffin",
    "url": "http://the-griffin.com",
    "lat": 51.525,
    "long": -0.084,
    "address": "93 Leonard St, Hackney, London EC2A 4RD"
  },
  {
    "title": "Homebrew Website Club London",
    "url": "https://hwclondon.co.uk",
    "lat": 51.51,
    "long": -0.129,
    "address": "110 St Martin's Ln, Charing Cross, London WC2N 4BA"
  },
  {
    "title": "Conway Hall",
    "url": "https://conwayhall.org.uk",
    "lat": 51.52,
    "long": -0.121,
    "address": "25 Red Lion Square, Holborn, London WC1R 4RL"
  },
  {
    "title": "Pig's Ear CAMRA Beer & Cider Festival",
    "url": "http://www.pigsear.org.uk",
    "lat": 51.552,
    "long": -0.053,
    "address": "1D Glenarm Rd, Clapton, London E5 0LY"
  },
  {
    "title": "Lee Valley Almost Wild Campsite",
    "url": "https://www.visitleevalley.org.uk/en/content/cms/where-to-stay-and-short-breaks/lee-valley-almost-wild-campsit/",
    "lat": 51.743,
    "long": -0.009,
    "address": "Nazeing New Rd, Broxbourne, Hertfordshire EN10 6TD"
  },
  {
    "title": "The Old Fountain",
    "url": "https://oldfountain.co.uk",
    "lat": 51.527,
    "long": -0.089,
    "address": "3 Baldwin St, Old Street, London EC1V 9NU"
  },
  {
    "title": "Mikkeller Bar London",
    "url": "http://mikkeller.dk/location/mikkeller-bar-london",
    "lat": 51.527,
    "long": -0.077,
    "address": "2-4 Hackney Rd, London E2 7NS"
  },
  {
    "title": "Beer Merchants Tap",
    "url": "https://beermerchantstap.com/",
    "lat": 51.544,
    "long": -0.024,
    "address": "99 Wallis Rd, Hackney Wick, London E9 5LN"
  },
  {
    "title": "The Craft Beer Co.",
    "url": "https://www.thecraftbeerco.com/",
    "lat": 51.526,
    "long": -0.088,
    "address": "235 Old St, Old Street, London EC1V 9HE"
  },
  {
    "title": "Brew by Numbers",
    "url": "https://www.brewbynumbers.com/",
    "lat": 51.497,
    "long": -0.072,
    "address": "75 Enid St, Bermondsey, London SE16 3RA"
  },
  {
    "title": "Sixty Eight Middle Street",
    "url": "http://68middle.st/",
    "lat": 50.821,
    "long": -0.144,
    "address": "68 Middle St, Brighton BN1 1AL"
  },
  {
    "title": "The Craft Beer Co.",
    "url": "https://www.thecraftbeerco.com/",
    "lat": 50.825,
    "long": -0.146,
    "address": "22-23 Upper N Street, Brighton BN1 3FG"
  },
  {
    "title": "Bison Beer Crafthouse",
    "url": "https://www.bisonbeer.co.uk/",
    "lat": 50.825,
    "long": -0.137,
    "address": "103 North Rd, Brighton BN1 1YW"
  }
]
